,City,Latitude,Longitude,Temperature Â°F,Humidity (%),Cloud Coverage (%),Wind Speed (MPH)
0,Morondava,-19.91389688891502,44.73420201262468,78.21,86.0,100.0,14.88
1,Adrar,28.05702659899626,2.277494454133773,82.45,12.0,79.0,10.33
2,Bluff,-66.70041362912343,154.488687923042,54.09,90.0,100.0,32.86
3,Chuy,-59.696770047312214,-27.91742135674241,77.16,70.0,0.0,10.74
4,Hilo,11.918788109674878,-150.4524201498027,62.17,68.0,75.0,5.75
5,Katsuura,30.709107798608542,143.18845294275036,42.35,75.0,20.0,5.75
6,Port Alfred,-83.1903874235366,46.50652174788317,77.0,89.0,38.0,1.99
7,Caravelas,-17.79267642996119,-36.48383741798952,85.57,55.0,0.0,9.89
8,Illoqqortoormiut,85.02214122478858,-11.80971343714404,,,,
9,New Norfolk,-57.44012747964211,132.2696594849386,51.19,66.0,0.0,2.71
10,Rikitea,-20.92555443105104,-129.05857795455563,78.21,75.0,64.0,9.69
11,Manakara,-21.83871436577445,48.29667370844311,76.57,86.0,100.0,1.19
12,Ushuaia,-72.06133771277533,-42.639597410112344,78.8,29.0,20.0,13.8
13,Belushya Guba,82.42432519880751,52.38733278488448,,,,
14,Cape Town,-58.23978649187403,-8.158607546362816,73.9,73.0,0.0,20.71
15,Yadgir,16.65733028778058,77.08749544856198,72.86,23.0,0.0,6.24
16,Ribeira Grande,33.9016532184003,-43.2203696335317,62.6,67.0,40.0,23.02
17,Tolmezzo,46.29742560719586,12.955110126874132,42.64,98.0,100.0,5.99
18,Lebu,-28.834505130616506,-100.40712530209329,70.48,60.0,1.0,8.16
19,Kijang,1.2643567771484925,105.94164492563897,41.0,48.0,0.0,8.05
20,Alekseyevsk,56.80066119621989,108.7903244238982,-6.05,88.0,26.0,2.91
21,Punta Arenas,-63.5194194903191,-101.43879531038667,60.39,67.0,0.0,9.22
22,Arraial Do Cabo,-43.77461260905229,-28.00215851675759,82.15,69.0,40.0,12.66
23,Shimoda,28.20338976621794,140.39787706807869,39.99,65.0,8.0,1.99
24,Qaanaaq,78.33571779724645,-86.19463206672613,1.38,71.0,22.0,9.04
25,Upernavik,87.44550000220127,-48.36298822418348,4.75,90.0,2.0,10.58
26,Kapaa,34.37882722147964,-175.95980946531517,69.8,52.0,20.0,17.27
27,Butaritari,21.489042635325703,171.82047470869776,81.07,77.0,78.0,15.37
28,Rebokon,7.743088309857839,123.39122603903559,,,,
29,Barentsburg,78.4172156891081,2.1259420567685368,,,,
30,Lolua,-4.260587601525486,177.80365014018162,,,,
31,Vaitupu,6.639730599227562,-179.98948259629222,,,,
32,Castro,-44.66137123198367,-82.49086384193606,74.57,55.0,90.0,3.09
33,Viligili,-0.6455011434070457,79.43907718045091,,,,
34,Evanston,41.40509286237369,-111.12378773033073,13.35,61.0,90.0,4.61
35,Mataura,-73.10188400395305,-153.39306041838748,49.26,92.0,100.0,13.76
36,Alice Springs,-24.663002165322027,137.80751825798995,86.56,58.0,16.0,6.91
37,Ponta Do Sol,34.479800842457195,-21.234393178053807,62.1,85.0,75.0,1.99
38,Tuktoyaktuk,69.38595778790716,-131.1243208228916,-31.0,68.0,1.0,9.22
39,Wahiawa,23.828767369347688,-157.3596928781604,57.38,88.0,1.0,6.91
40,Conde,-13.588672147425228,-34.68627527839993,87.8,62.0,75.0,12.66
41,Hobart,-49.80214729959666,146.01643908933465,50.85,82.0,0.0,5.75
42,San Patricio,2.585238498848213,-119.62409061627079,72.19,100.0,90.0,10.36
43,Mar Del Plata,-69.95695049208717,-23.336642203780286,69.67,73.0,40.0,17.27
44,Kintinku,-5.824495483518163,35.34609230047624,70.99,86.0,99.0,2.28
45,Gobabis,-22.234943598996395,18.4158414352371,73.06,63.0,100.0,16.35
46,Lata,-5.458652323653425,166.72135433175248,57.51,88.0,75.0,5.75
47,Alofi,-23.25832551152419,-169.88508086412804,77.0,100.0,100.0,2.3
48,Solovetskiy,65.0732537354757,36.248011039017626,,,,
49,Jamestown,-17.10423672019786,-7.716084758376837,20.77,53.0,1.0,6.91
50,Vaini,-48.48892588703627,-174.47427630208867,77.0,94.0,20.0,5.75
51,Clyde River,71.42426155588166,-73.62162828655308,6.8,92.0,90.0,41.43
52,Lagoa,48.970355954991305,-33.327453745405876,58.15,69.0,45.0,33.73
53,Cabo San Lucas,14.739854695901755,-120.73244045986988,64.92,77.0,1.0,12.66
54,Iquitos,-1.5698429371068983,-72.17685934227707,89.6,62.0,40.0,10.36
55,Provideniya,52.20065209771465,-177.55317659245563,-12.3,77.0,0.0,11.63
56,Kruisfontein,-42.838306645052235,24.782460972378743,77.0,77.0,0.0,13.0
57,Caxito,-8.87773319725082,13.572354112665977,86.0,66.0,20.0,6.91
58,Yerbogachen,63.87068605737798,105.25224069269899,-5.69,90.0,97.0,5.61
59,Commerce,33.14766138765421,-95.87774242162999,54.19,76.0,75.0,3.85
60,Kimbe,-3.959008486823265,149.04002639575782,76.68,89.0,100.0,1.86
61,Xiangdong,27.894554251511053,113.8950405282875,,,,
62,Longyearbyen,79.51990918094745,17.571047018659016,12.2,73.0,90.0,20.71
63,East London,-56.96583500670045,43.405131396143304,78.8,83.0,20.0,11.5
64,Tasiilaq,72.48075337126838,-37.598306470312394,12.2,62.0,75.0,2.3
65,Coihaique,-47.52235612116041,-77.18588443075517,80.6,36.0,20.0,8.05
66,Saleaula,2.68276429712229,-166.21476985224749,,,,
67,Busselton,-36.54269876439393,108.24454108330048,54.63,96.0,0.0,8.66
68,Dikson,84.55099004847008,73.55011780099059,-19.82,89.0,100.0,8.52
69,Te Anau,-44.39730637179438,167.14954101691785,48.81,86.0,100.0,8.75
70,Bredasdorp,-58.55188893982018,17.18176434162004,73.4,64.0,4.0,11.5
71,Hermanus,-63.15013605639423,5.851835133254582,79.0,63.0,0.0,8.01
72,Raton,37.20032683531389,-103.51396090090992,40.35,35.0,1.0,8.05
73,Kaeo,-31.79188857232024,175.04251139655696,62.01,96.0,98.0,1.99
74,Marawi,19.993145396486895,29.72450594900235,75.0,92.0,93.0,5.01
75,Saldanha,-43.101083049214,-2.0784095291054996,80.6,47.0,0.0,12.66
76,Magan,62.33247385669475,128.7585133022451,57.0,58.0,2.0,12.82
77,Konya,37.78989364363501,32.662805298378316,51.8,46.0,20.0,6.91
78,La Union,37.046411821383685,-0.26233213886465023,86.9,47.0,41.0,5.64
79,Okakarara,-21.402668223180484,18.055204719817766,71.89,76.0,100.0,7.85
80,Avarua,-68.8137693162204,-165.94337485521814,78.8,83.0,20.0,4.61
81,Sorong,2.332433966730406,132.50885295649528,81.95,81.0,100.0,6.76
82,Diofior,13.849256931413848,-17.067450105345046,95.09,18.0,0.0,6.91
83,Morlaix,49.06253141028094,-4.199392175823419,36.43,64.0,0.0,18.41
84,Turmalina,-17.397597439171136,-43.16144396049049,81.54,60.0,67.0,4.9
85,Agadez,17.51576425620945,6.941537773050612,73.69,17.0,85.0,4.41
86,Cidreira,-48.69504432040595,-29.829537353150442,78.06,70.0,5.0,12.1
87,Ambon,-6.0973225181330974,127.25755438044712,81.55,78.0,100.0,4.65
88,Soro,21.308510086204564,86.70993733687436,64.98,75.0,18.0,4.79
89,Nuuk,64.03654806926934,-50.65454282599387,26.29,93.0,75.0,5.75
90,Calvinia,-32.09835612270887,20.68347884194739,92.97,12.0,0.0,17.2
91,Codrington,25.395409697637717,-55.02467511363372,63.18,74.0,0.0,8.61
92,Vestbygda,56.88816376234789,5.982032537706203,,,,
93,Albany,-87.51480328020655,108.84192559115803,26.17,47.0,47.0,4.0
94,Marsh Harbour,29.878872322381326,-72.35975697772628,75.38,73.0,0.0,8.99
95,Campbell River,49.686820393191,-125.44952314160446,28.26,86.0,90.0,4.61
96,Aswan,24.114113828042136,31.866955131238456,78.3,18.0,95.0,10.58
97,Taolanaro,-37.70871129376994,54.516651982510325,,,,
98,Russell,-25.994655368571998,178.85905615005646,64.18,94.0,90.0,5.75
99,Lakes Entrance,-37.66429533196383,148.6165867154955,55.99,94.0,0.0,3.0
100,Shibetsu,43.14273158586286,145.00675374974668,19.18,91.0,55.0,9.28
101,Geraldton,-27.079380884557153,113.98026995953256,64.4,63.0,0.0,19.57
102,Nome,66.95541758855853,-167.04772477610516,-11.2,49.0,1.0,21.85
103,Vardo,88.9800065812662,34.56157617631982,21.2,68.0,40.0,27.63
104,Broome,-20.036592337392037,125.68602597987069,20.34,57.0,1.0,12.66
105,Nioro,14.683711610932633,-9.11587189286115,102.45,8.0,94.0,6.82
106,Leshukonskoye,66.4056495886326,46.25845123693409,-15.09,88.0,0.0,3.91
107,Namibe,-15.87688140013151,12.163842117403249,80.6,65.0,20.0,8.05
108,Norman Wells,70.20644114516483,-120.76931380977334,-38.2,67.0,40.0,4.59
109,Santa Ana,18.33377484358003,123.16140409766354,55.42,72.0,75.0,3.44
110,Berdigestyakh,62.85040730450419,125.88512935431316,-15.16,87.0,0.0,4.97
111,Souillac,-32.898175801596295,64.68659842623748,80.6,74.0,40.0,9.22
112,Cangzhou,38.508652833782776,116.69102778153825,43.11,59.0,0.0,7.52
113,Galdar,28.394556622580566,-15.878035478594853,67.41,72.0,75.0,5.75
114,Kahului,36.2588717102434,-149.99847367325668,64.29,72.0,1.0,9.22
115,Mehamn,75.85746582081586,26.81073431093384,23.0,63.0,75.0,19.57
116,Atuona,0.04515533209682587,-132.28368831698955,78.93,77.0,6.0,20.31
117,Thurles,52.71845195216727,-7.618508758525735,33.66,67.0,92.0,4.0
118,Bridgend,51.20248036455848,-3.7279463405044453,33.93,64.0,40.0,16.11
119,Torbay,47.48478663050162,-52.12120273741023,26.15,80.0,75.0,27.63
120,Gondar,12.282176096048232,36.955520716431835,59.74,33.0,65.0,5.7
121,Dobryatino,55.4263112406224,41.36976651958392,5.83,95.0,100.0,7.81
122,Kodiak,48.862043490727046,-148.00901922091268,37.4,75.0,90.0,16.11
123,Vao,-28.58932074200864,169.37572120086486,76.41,84.0,0.0,14.07
124,Fochville,-26.329364678159216,27.164398431041008,72.66,79.0,11.0,5.95
125,Olinda,-9.002020771319025,-25.020662910008923,84.2,65.0,40.0,11.5
126,Tukrah,34.91008998375949,19.17823265161792,63.12,47.0,0.0,10.38
127,Puerto Ayora,-3.5109042851759398,-94.84755292547227,80.8,83.0,75.0,5.75
128,Nikolskoye,39.91911342742057,175.32597454434733,6.48,85.0,75.0,4.12
129,Amderma,86.40231500847472,63.18925543990048,,,,
130,Loei,18.056029763492432,101.19754691421076,70.0,66.0,47.0,0.98
131,Bellevue,44.54512472988844,-87.66145190702882,30.9,86.0,75.0,8.05
132,Hamilton,27.883229040901924,-63.90666566008129,20.26,73.0,90.0,8.05
133,Barrow,74.59338339916525,-158.91427271546328,-16.6,76.0,90.0,12.66
134,San Matias,-16.60094564099724,-59.04158806782098,93.7,40.0,76.0,4.9
135,Nador,34.6499204647677,-1.86947194241597,67.84,63.0,20.0,16.11
136,Kaitangata,-60.235534742964475,174.68221760538182,55.0,56.0,100.0,8.01
137,Montlucon,46.347109555149245,2.6598666468516683,31.84,97.0,100.0,6.51
138,Touros,-2.125118299791197,-34.853227999594225,89.6,55.0,40.0,18.41
139,Mount Gambier,-40.302635025745964,138.85001132747993,66.2,55.0,5.0,5.75
140,Santa Maria,16.596213970064056,-22.62354983326469,78.8,73.0,75.0,6.91
141,Port Elizabeth,-49.07119354832684,28.449951420299385,78.8,73.0,20.0,11.5
142,Damghan,35.86332290974144,53.95036060605989,53.89,42.0,100.0,3.18
143,Teabo,20.3509199537297,-89.11500587565959,87.84,44.0,5.0,7.43
144,Lincoln,45.018366412390606,-67.95043074832309,9.84,66.0,75.0,12.66
145,Inhambane,-27.63620656150701,38.62500504568732,84.2,65.0,40.0,11.5
146,Mount Isa,-22.186914640045956,139.1236987844727,84.2,61.0,75.0,9.22
147,Abilene,32.56079773679234,-99.15850757033544,26.37,93.0,90.0,12.66
148,Flinders,-33.00203986529922,128.4857657813297,64.42,84.0,82.0,1.01
149,Oranjestad,12.932494548892507,-70.37373030857941,80.6,74.0,20.0,18.41
150,Saskylakh,86.3128834270637,118.67680434194943,-20.54,84.0,4.0,10.02
151,Kavaratti,13.092919305485111,65.8279720204199,81.9,63.0,47.0,7.61
152,Goldsboro,35.36450631708615,-78.17518775022991,49.42,53.0,75.0,9.22
153,Sinnamary,16.193321986071794,-45.24260353842615,79.59,75.0,100.0,10.6
154,Japura,-1.9909588425330043,-70.97475180797865,76.01,94.0,9.0,1.77
155,Warrington,28.32435717609539,-87.35239504008348,34.34,60.0,75.0,11.5
156,Cabra,14.212004852956781,119.39712954348249,61.03,88.0,40.0,5.75
157,Olafsvik,61.49201224879306,-30.749152233835616,34.88,88.0,100.0,15.39
158,Jiddah,23.07373590020201,39.23610500775197,,,,
159,Port Lincoln,-35.53289107898516,134.74259456494764,73.94,49.0,61.0,13.09
160,Penhold,51.99953306864458,-113.68006761227872,-23.8,69.0,90.0,5.75
161,Guerrero Negro,23.023133356487975,-119.05074166019692,58.53,68.0,100.0,14.58
162,Bolungarvik,65.82343921166577,-23.025612410595585,,,,
163,Suntar,61.58323916314558,118.90213449934743,0.7,93.0,100.0,3.13
164,Yellowknife,68.48892367292206,-113.94797246538994,-12.77,76.0,20.0,6.91
165,Saint Paul,54.837660318674494,-111.40915125671779,4.26,55.0,90.0,9.22
166,Thilogne,15.66520915142732,-14.023744358638595,,,,
167,Huarmey,-18.238870038806283,-93.45339155221737,77.02,60.0,80.0,7.56
168,Maragogi,-16.449881357268552,-25.756546893919136,83.86,69.0,74.0,13.38
169,Katherine,-14.595464434776446,131.85209502184182,80.6,83.0,100.0,5.75
170,Nantucket,37.55115403013035,-68.47250792257597,27.72,74.0,1.0,16.11
171,Vredendal,-32.024484056908,18.367544290451605,89.55,29.0,0.0,19.69
172,Maarianhamina,59.729571438827236,20.87460226021608,17.6,93.0,40.0,6.91
173,Mahebourg,-37.08663164303665,69.067542245873,80.6,74.0,40.0,9.22
174,Anshun,26.200736596773254,106.32280053886853,41.47,94.0,2.0,2.21
175,Truth Or Consequences,32.78699684181014,-107.43340818863348,51.8,19.0,1.0,2.93
176,Churachandpur,24.304244657930226,93.3817253674307,51.62,61.0,1.0,1.52
177,Talcahuano,-33.275698227700644,-79.18465578157773,60.8,88.0,90.0,8.05
178,Saint-Philippe,-27.57313520684842,56.46024581395514,76.73,65.0,75.0,3.44
179,Dunedin,-50.16529433695711,174.35277838946723,56.55,51.0,86.0,1.99
180,Ahipara,-34.648226666990126,166.46182981282476,62.28,90.0,100.0,8.37
181,Vila Velha,-28.018838135209812,-26.212593653268158,83.21,62.0,40.0,10.36
182,Lavrentiya,76.02938524686928,-168.0945988177194,-25.26,80.0,0.0,8.7
183,Verkhneyarkeyevo,55.17682385614367,54.160172812585415,-3.1,92.0,91.0,6.98
184,Ancud,-40.5787393150311,-96.84584110351824,80.58,44.0,0.0,5.75
185,Arman,55.693184665724914,148.14824053450621,16.27,90.0,91.0,13.42
186,College,70.04414092170555,-147.18143613023437,-10.03,64.0,75.0,6.91
187,Sentyabrskiy,32.53726613349916,159.82488479690363,,,,
188,Chernyshevskiy,64.11794220229746,111.49521267753619,-16.17,91.0,96.0,0.43
189,Micheweni,-5.933343772238857,43.84924739354835,81.5,75.0,100.0,14.36
190,Grand River South East,-18.43397115891534,69.53626888615008,,,,
191,Airai,14.52626850751156,144.38185036821744,61.21,100.0,100.0,1.57
192,Samarai,-14.916461746102286,154.99237876575927,81.99,77.0,95.0,12.28
193,Meulaboh,-5.159225782070266,88.42340158066435,78.39,88.0,97.0,4.45
194,Hasaki,34.767952216870356,142.53354537911048,35.73,93.0,20.0,4.61
195,Saint-Francois,18.334930238158506,-54.291594022461055,33.42,86.0,90.0,13.8
196,Diffa,15.231774343568887,13.211354702527842,78.26,16.0,28.0,7.27
197,Pimampiro,0.04883806406080282,-77.51732868307639,60.8,72.0,75.0,6.91
198,Biak,1.653436454876612,139.53502955023737,77.77,82.0,80.0,3.06
199,Basoko,1.6159908513692471,23.6022693118166,83.89,36.0,97.0,2.55
200,Panjab,33.85401136249607,67.06689232695177,17.35,77.0,13.0,4.14
201,Goderich,4.948334551232037,-18.16411948299944,17.6,62.0,80.0,9.22
202,Taoudenni,26.17424689722114,-3.997254737356002,83.75,12.0,0.0,9.51
203,Skiathos,39.11187379384728,23.54999445473709,55.99,59.0,21.0,4.0
204,Mys Shmidta,78.12606836476488,-176.26452838197093,,,,
205,Haibowan,40.82456349106201,105.90430221660785,,,,
206,Mildura,-34.644483823636236,141.4072811026261,76.03,43.0,0.0,6.91
207,Amahai,-2.281719404334538,127.96930540932539,79.83,82.0,98.0,3.96
208,Todos Santos,23.650368167545267,-109.31314622727511,64.99,70.0,23.0,5.99
209,Nanchang,28.7724909418111,115.25044001770061,52.95,94.0,100.0,9.37
210,Lazurne,45.71282917812502,32.43170996745039,41.79,100.0,75.0,4.47
211,Paka,5.577233062519312,106.39124012160096,77.0,94.0,82.0,4.85
212,Cherskiy,82.49006311196803,160.90304244511145,-8.88,85.0,0.0,3.06
213,Gimli,51.48022900914748,-96.48616916492115,-20.2,76.0,87.0,5.91
214,Vila,-14.7515424954168,174.1009825699441,51.01,78.0,67.0,11.01
215,Victoria,-7.0638440514981085,60.21800516953712,60.58,88.0,91.0,7.49
216,Khatanga,74.4812495696253,107.66576746330333,-14.48,85.0,52.0,6.89
217,Capreol,47.10123129371914,-81.09973778348494,7.47,55.0,20.0,2.3
218,Grojec,51.54755514171802,20.661255118254587,19.0,100.0,100.0,4.65
219,Berlevag,74.41526050584275,29.176476662382612,20.17,86.0,75.0,21.85
220,Visconde Do Rio Branco,-20.914960706699375,-42.97819322527951,81.64,66.0,57.0,7.92
221,Kudahuvadhoo,1.905182830253608,70.21799797871344,81.41,78.0,23.0,10.54
222,North Platte,42.58399638476166,-101.61136148678887,7.36,72.0,90.0,5.75
223,Kemi,65.54567895831585,24.35237148815895,-13.0,77.0,75.0,2.3
224,Leningradskiy,70.64049487753707,178.91441240057713,-27.94,83.0,61.0,11.92
225,Chokurdakh,87.38517256652446,146.13075748869358,-10.95,89.0,29.0,7.7
226,Muros,45.640513480773336,-16.353452414337085,55.06,68.0,98.0,5.01
227,Heihe,50.42176055808798,126.54659499350669,12.2,67.0,0.0,2.24
228,Georgetown,-10.615133157494583,-18.215024443326342,82.2,74.0,20.0,4.61
229,Mpanda,-5.839949817542205,30.671542941420995,68.54,90.0,100.0,0.87
230,Aklavik,67.64257436071736,-137.93012720500116,-29.2,68.0,0.0,5.75
231,Nizhneyansk,88.55221977506474,143.09416478473344,,,,
232,Tamale,9.432900976726089,-1.322017783377106,101.91,8.0,33.0,6.91
233,Ca Mau,6.744691440920391,105.2572168554658,75.49,89.0,86.0,3.87
234,Puerto Madero,13.70407336143154,-93.26603943761934,82.4,78.0,40.0,6.91
235,Saint George,26.533906678888584,-56.80441266335528,50.79,46.0,1.0,0.18
236,Esperance,-31.025054729339757,120.54964858693427,60.8,77.0,90.0,11.5
237,Atasu,48.91133280813253,70.92231343504966,-10.84,83.0,28.0,4.68
238,Uyuni,-19.664126177338346,-68.34239254442213,60.48,29.0,21.0,15.88
239,Eureka,41.39183950986845,-130.24753198460547,39.69,100.0,40.0,1.74
240,Avera,-30.793184239624168,-154.96517197073882,65.64,52.0,1.0,3.44
241,Nanortalik,55.36866251760398,-48.93860353697556,27.45,88.0,65.0,7.72
242,Atar,22.137691714597423,-10.834517933326026,88.34,10.0,0.0,8.52
243,Nemuro,38.222038697037306,147.5700020954381,23.5,89.0,42.0,17.47
244,Hithadhoo,-1.9661925318587663,64.12335717238392,82.54,74.0,19.0,11.63
245,Dingle,54.71037007535634,-18.671792214132154,75.69,88.0,100.0,2.26
246,Kosonsoy,41.22221440981966,71.31947776710496,50.0,81.0,100.0,2.3
247,Le Port,-17.324067820589406,54.09893688603168,72.81,78.0,83.0,12.66
248,Ballina,-30.385148693379065,156.41428512672923,65.53,94.0,75.0,4.61
249,Vestmannaeyjar,59.71835271404609,-19.765874429819263,39.2,70.0,40.0,16.11
250,Tsihombe,-54.32816869234631,48.557264834935495,,,,
251,Melo,-31.97851663646135,-54.160677317481074,81.75,53.0,81.0,6.33
252,Ust-Kuyga,69.48321649257198,135.81748483878044,-16.89,81.0,23.0,2.66
253,Myaundzha,61.94899918275567,147.12711271607094,0.82,88.0,76.0,5.68
254,Kamenskoye,64.39091025137739,164.32464725972898,,,,
255,Tumannyy,82.88646096932465,37.7815429797659,,,,
256,Tibu,8.57184948896547,-72.70766810271456,90.25,46.0,57.0,3.53
257,Assiniboia,48.11848614708734,-106.40669793411219,-20.2,57.0,28.0,12.66
258,Bilma,18.055640983762885,11.374624265686833,76.78,15.0,0.0,6.6
259,Beloha,-25.353657052958184,44.52629172124966,71.89,88.0,100.0,14.23
260,York,54.08480741983027,-0.7338915408280116,32.65,51.0,20.0,8.05
261,Dhidhdhoo,8.27139393232315,73.08216792178956,82.18,66.0,9.0,6.53
262,Pakokku,21.19789455229764,95.18296803354701,70.74,33.0,0.0,1.54
263,Port Macquarie,-36.62588335256946,160.59679200350934,63.0,99.0,45.0,1.99
264,Maxixe,-24.330592776588787,35.23472146099027,84.2,65.0,40.0,11.5
265,Asandh,29.557301746503526,76.40292891484683,59.45,40.0,0.0,3.94
266,Zhigansk,70.67587190455322,122.12631103002775,-19.7,84.0,0.0,10.09
267,Hinova,44.55275757300984,22.719861530752468,51.8,78.0,100.0,5.41
268,Laguna,-42.648726421138484,-32.353860799574505,50.07,93.0,1.0,2.51
269,Katangli,51.2136781634654,144.08255724765883,15.35,96.0,100.0,16.55
270,Padang,-0.629980768329915,99.665622925624,77.0,83.0,20.0,3.44
271,Fairbanks,65.20997424381733,-144.1895619372541,-10.1,70.0,90.0,3.56
272,Mentok,-1.5416261561437636,105.43329314739952,,,,
273,Araouane,20.64832580057721,-3.7354945820302135,86.85,11.0,45.0,8.57
274,Mandalgovi,44.8037858289822,107.3069971326641,29.35,79.0,99.0,20.96
275,Zlutice,50.19045090040632,13.216460990465293,12.63,79.0,75.0,6.91
276,Tura,65.95465704011792,104.82501732747829,61.57,41.0,40.0,1.99
277,Skelleftea,65.30160727674422,19.68032224316903,3.65,85.0,0.0,8.05
278,Bargal,10.56062321504497,55.877241713338265,,,,
279,Samusu,-7.7785925617902905,-161.92271500858382,,,,
280,Chicama,-14.173591231645872,-90.27343881922738,71.6,83.0,75.0,6.91
281,Faanui,-6.159330244207808,-153.86132087734887,81.07,67.0,0.0,9.22
282,Acapulco,14.407851629324199,-100.68815405672773,82.4,54.0,1.0,5.75
283,Sao Gabriel Da Cachoeira,1.5752144922610967,-67.17412920955228,86.0,66.0,40.0,5.75
284,Komsomolskiy,69.22158504867883,173.0742868998655,50.0,81.0,100.0,2.3
285,Osoyoos,48.736119645310566,-119.46278682561851,19.4,53.0,89.0,11.5
286,Hasilpur,29.638054214746745,72.74373281625614,63.37,28.0,0.0,5.44
287,Xacmaz,41.42719282973886,49.262576080608994,46.71,90.0,21.0,4.34
288,Bourges,47.22246697051392,2.4495996865982477,27.16,86.0,90.0,11.5
289,Sao Joao Da Barra,-34.43547043743018,-23.017787443303206,86.0,51.0,20.0,16.11
290,Vila Franca Do Campo,36.394444441191524,-22.441814840644128,60.8,88.0,75.0,19.57
291,Betanzos,-19.384358275637368,-65.39410775648369,54.09,62.0,20.0,10.36
292,Kyren,51.22828669409259,101.54281671307484,7.7,89.0,100.0,0.72
293,Quarai,-30.213780385615557,-56.439332480452606,78.04,62.0,83.0,3.22
294,Uusikaupunki,60.674450329112744,20.704952280989716,10.4,85.0,0.0,3.44
295,Gizo,-11.616137869886984,155.4310597455339,82.45,75.0,71.0,7.38
296,Talnakh,75.45391539269178,91.96227059761719,-12.33,82.0,15.0,4.54
297,Ruidoso,33.09974870705359,-105.78398002418857,49.53,17.0,1.0,5.75
298,Ilulissat,87.01486428247853,-41.1129020940235,14.0,41.0,1.0,19.57
299,Moussoro,13.104181603906625,16.79218679450588,80.13,15.0,3.0,8.68
300,Tiksi,87.7893424217171,131.46472251868744,-17.7,88.0,15.0,4.38
301,High Level,58.93520096412945,-115.30233957683703,-16.6,76.0,90.0,2.3
302,Asfi,31.83156521372554,-9.951066764719627,62.22,72.0,0.0,8.23
303,Ust-Charyshskaya Pristan,52.151356583655485,83.77611309370332,-9.78,88.0,100.0,13.15
304,Attawapiskat,53.86912973723392,-83.73715023990121,,,,
305,Anan,33.75995269223171,134.8871875573634,44.6,65.0,20.0,6.91
306,Mangai,-3.5482590983456674,19.345645726027044,82.11,65.0,100.0,2.84
307,Karaul,72.31447940758002,85.19660673758074,,,,
308,Bilibino,66.08127819652793,167.52130954463627,-9.36,86.0,7.0,2.64
309,Mocuba,-17.06490373027499,37.70132741578462,77.29,94.0,100.0,4.34
310,San Cristobal,-6.032248112588562,-88.70225482978009,78.8,69.0,75.0,6.91
311,Carnarvon,-21.1392421371431,103.32643357343107,73.4,88.0,0.0,24.16
312,Hit,33.41309868998765,43.148680966406886,64.35,40.0,62.0,9.04
313,Richards Bay,-31.520508214861756,35.692600941746946,77.05,83.0,94.0,6.82
314,Lodja,-2.224206791916018,23.65103255741826,81.16,61.0,100.0,2.04
315,Telde,27.943683584381645,-15.006686312770313,68.07,73.0,75.0,6.91
316,Lubango,-14.198912113790925,13.04570435029683,77.0,71.0,40.0,11.5
317,Makakilo City,15.828726733252594,-161.45495304345934,57.7,77.0,1.0,3.44
318,Daura,11.290431093546943,11.425172656877749,84.38,13.0,3.0,8.63
319,Bumba,2.175061657529838,22.09536437385779,82.76,32.0,100.0,0.98
320,Kungsbacka,57.10330416086305,11.402589699441677,23.23,73.0,90.0,12.66
321,Narasannapeta,14.42576504135792,87.32501665363611,69.06,75.0,0.0,1.66
322,Klaksvik,65.20656571407324,-5.327119085921481,24.8,74.0,31.0,1.14
323,Winslow,35.14450529267218,-110.44908468140017,45.0,36.0,90.0,6.38
324,Juegang,33.395537337501125,122.3674579293143,48.99,84.0,100.0,8.1
325,Ust-Tsilma,64.8690313580098,50.36416788848561,-13.7,89.0,81.0,3.51
326,Ugoofaaru,5.369476063457853,71.26818320736677,81.72,65.0,0.0,6.33
327,Port Hardy,43.301437611090876,-139.40666482934967,25.09,86.0,40.0,5.75
328,Zdvinsk,54.537872925329935,78.57400165827426,-22.16,87.0,95.0,8.03
329,Ponta Delgada,29.081583758145996,-27.444889271943367,60.8,88.0,75.0,19.57
330,Presidencia Roque Saenz Pena,-27.818054888515682,-61.11712940969491,86.0,53.0,100.0,1.99
331,Evensk,64.5743949050194,161.23358666879608,10.76,89.0,35.0,11.92
332,Tonj,6.596463637825224,29.3135599475452,86.56,16.0,89.0,4.25
333,Texarkana,34.06188779981345,-94.30766481659518,38.53,93.0,90.0,5.75
334,Karasjok,68.18683391680537,25.772123848482494,19.4,73.0,0.0,12.66
335,Madera,37.27086326622596,-119.86799373081713,49.57,84.0,6.0,1.21
336,Qui Nhon,14.026033759090325,112.95941496387121,71.2,79.0,95.0,13.94
337,Mitchell,42.800764187313575,-99.2236552702078,6.8,51.0,40.0,10.36
338,Shanting,35.335129174990854,117.33208677400603,42.98,64.0,16.0,5.84
339,Imbituba,-29.10712691633082,-42.95459440770381,82.4,57.0,40.0,10.36
340,Marcona,-15.771522333745551,-76.9972139701473,,,,
341,Ordu,40.92545251050572,38.03288769827401,55.4,82.0,75.0,9.22
342,Severo-Kurilsk,51.688681103997,152.83365889817856,25.48,89.0,83.0,8.88
343,Cheremukhovo,61.14665720394012,59.0869832753059,-20.2,84.0,0.0,3.06
344,Boa Vista,1.1559485337422188,-62.060048396164646,87.8,42.0,40.0,20.71
345,Abha,18.413626669212164,42.79686639814889,59.85,77.0,20.0,4.61
346,Saint Marys,41.28186471535122,-78.96714991333069,67.69,88.0,90.0,4.61
347,Gavle,60.47873511688556,17.060941920226867,16.93,78.0,100.0,10.0
348,Tuatapere,-48.58296899642249,165.99211858450383,51.35,91.0,100.0,16.08
349,Sandwick,58.844420697567756,-0.5721674483824017,33.8,86.0,40.0,2.3
350,Natal,-4.143776925257626,-29.923041790498615,89.6,55.0,75.0,18.41
351,Songjianghe,42.60955272193158,127.61611295605695,15.94,96.0,23.0,5.5
352,Marrakesh,30.546756356400763,-5.869277695462102,71.6,46.0,0.0,5.75
353,Cabedelo,-3.125914177733364,-24.567225539746403,87.8,62.0,75.0,12.66
354,Ozgon,41.46934498769775,74.0261196868764,,,,
355,Bathsheba,19.07691081919785,-46.71011678689831,84.2,54.0,40.0,23.02
356,Tawnat,34.589788374793514,-4.916466822278153,,,,
357,Kunnamkulam,10.64788920278069,76.059527131185,78.19,61.0,20.0,2.42
358,Portadown,54.67359654704799,-6.738417807803529,35.85,69.0,0.0,10.36
359,Jogindarnagar,32.1855318083699,76.76002820600951,56.44,34.0,1.0,5.39
360,Kem,65.51956998659259,34.434154380878795,-4.16,92.0,6.0,5.99
361,Ranong,9.936344930370169,95.45529299544762,75.36,83.0,19.0,4.47
362,Hokitika,-38.55751999549692,165.01097348700722,52.52,80.0,53.0,6.73
363,Dandong,38.85461989319495,124.62217208736575,30.76,93.0,0.0,3.36
364,Shimanovsk,52.77841758728195,129.03388843278037,0.25,93.0,100.0,7.94
365,Gat,26.33988558173577,5.957605926562195,61.0,100.0,0.0,6.33
366,Araripina,-7.607438328485529,-40.501690969782345,88.23,41.0,17.0,9.51
367,Coquimbo,-26.799790377791,-87.61856155479029,68.0,68.0,20.0,14.97
368,Ostrovnoy,74.59381845946436,43.735245330801945,7.0,93.0,47.0,16.44
369,Le Vauclin,15.257772836153748,-59.162767452433414,79.47,65.0,90.0,19.57
370,Waingapu,-10.998988850716103,121.56210457703759,78.37,80.0,100.0,4.9
371,Trincomalee,9.704664490771265,83.23063150659692,76.59,68.0,38.0,11.41
372,Bardiyah,27.76934167952068,25.366028255203815,63.01,51.0,1.0,3.65
373,Impfondo,1.839234294677638,18.529360645911993,85.44,29.0,30.0,1.92
374,Isangel,-18.452332276942585,174.27639463441324,78.82,83.0,23.0,9.44
375,Carbonia,38.46523544519164,6.646152700112538,53.73,93.0,90.0,26.46
376,Ruteng,-8.025233286828055,120.53797113387378,63.37,100.0,100.0,1.14
377,Ribas Do Rio Pardo,-20.300555933406372,-53.751303840326315,86.86,44.0,89.0,3.76
378,Beroroha,-21.37319715672659,45.20454996540835,72.97,89.0,100.0,4.34
379,Uwayl,8.801044683282697,27.394144211066163,,,,
380,Gamba,-8.930645970939352,2.2220543137162565,80.91,82.0,88.0,7.23
381,Agasegyhaza,46.874784272317385,19.470439408430565,43.59,100.0,90.0,6.91
382,Carahue,-39.13480662053091,-73.77472712002236,84.2,51.0,0.0,3.44
383,Omboue,-2.254567572515782,7.46399019222352,81.88,81.0,96.0,7.38
384,Rumford,44.45744523424435,-70.70522865835271,22.26,68.0,35.0,4.0
385,Pierre,45.21755464403728,-100.37539698282032,3.76,46.0,75.0,9.22
386,Chokwe,-22.842767125865535,33.14674358890602,77.18,79.0,2.0,8.12
387,Beringovskiy,56.34244724477398,178.5380702418226,-19.44,87.0,19.0,11.5
388,Bida,9.415930718126432,6.092574029229411,100.56,12.0,0.0,3.96
389,Saint-Georges,4.307025679470087,-49.43673193932048,78.8,83.0,40.0,20.71
390,Luderitz,-26.725871853596338,9.756039213077145,71.85,65.0,20.0,15.21
391,Tabas,35.04660132770307,56.387215615110335,59.0,23.0,62.0,4.61
392,Santa Cruz,8.394800265062557,-88.00652091514598,71.19,94.0,90.0,13.8
393,Thompson,71.46852696094425,-99.9721141727418,-36.4,67.0,75.0,2.3
394,Noumea,-25.073171116545836,164.82875131204685,71.6,94.0,90.0,3.44
395,Broken Hill,-32.8139017018844,140.8475391021122,82.4,30.0,0.0,12.66
396,Nouadhibou,24.112046794643405,-16.704866048386407,78.8,38.0,0.0,10.36
397,El Paujil,1.623619312320841,-75.37280144662944,88.68,52.0,28.0,5.01
398,Togur,59.610577604254246,83.11696500468645,-12.95,89.0,95.0,7.9
399,Doctor Pedro P. Pena,-21.854881352687443,-61.653203252723,,,,
400,Faranah,10.306145396485718,-10.582461689416931,98.42,11.0,73.0,4.72
401,Xingyi,24.92036210972151,104.87866683848762,42.35,90.0,0.0,1.79
402,Chifeng,43.906818187861234,118.44065841615236,22.21,86.0,0.0,5.1
403,Poum,-19.631187405502246,160.86306953508807,78.49,76.0,0.0,14.36
404,Ingham,-18.52157748169772,146.80380067722325,16.27,73.0,90.0,3.44
405,Port Shepstone,-31.95495967961918,32.42453042889875,77.77,83.0,71.0,14.63
406,Bolgar,55.098674112995184,48.86353812940777,6.8,72.0,90.0,6.71
407,Boende,-1.6907300285560325,20.807390764350828,82.87,46.0,97.0,1.25
408,Pitimbu,-7.572431675760129,-34.07958787241813,87.8,62.0,75.0,12.66
409,Brae,64.22862417700742,-0.6653404431821173,33.8,86.0,40.0,2.3
410,Mercedes,-28.944201457357607,-58.481969876963376,76.91,75.0,61.0,7.0
411,Balikpapan,-0.6572072767460924,115.71438443543025,78.01,89.0,43.0,1.79
412,Pitanga,-24.695362964862,-51.5971533016195,81.19,40.0,51.0,1.97
413,Tandil,-37.03534745046054,-58.283140508072506,77.97,44.0,7.0,4.0
414,Nelson Bay,-35.17138255948269,156.03288295846562,59.63,100.0,40.0,2.59
415,Mahon,39.87442952848343,5.660064348224807,55.4,62.0,20.0,14.97
416,Shirokiy,62.917512249255594,147.9098365209046,0.37,92.0,63.0,2.1
417,Tan An,10.636842246975363,106.08359518067755,78.8,83.0,40.0,1.14
418,Ulaanbaatar,47.8028519080828,105.88827836363293,8.6,78.0,75.0,4.47
419,Udachnyy,69.8599482920377,110.3891473789543,-17.81,86.0,97.0,5.97
420,Hobyo,2.119323714471264,50.531012967010724,77.88,75.0,76.0,20.09
421,Bandar-E Lengeh,26.914328867055872,54.3720397785134,71.6,46.0,0.0,4.61
422,Hambantota,2.9512213321659004,81.9177800403807,77.0,78.0,0.0,11.5
423,Babanusah,10.51767407241364,27.107446017290982,,,,
424,Honiara,-14.085749097813206,158.73019641971058,78.06,82.0,52.0,3.29
425,Vagur,60.93820690050998,-6.533192075010447,36.61,78.0,75.0,12.66
426,Hay River,64.7985336296916,-119.31101284092786,-16.6,69.0,100.0,11.5
427,Itarema,6.52628586426674,-38.00516937199026,87.44,60.0,27.0,16.75
428,Plettenberg Bay,-47.25082112547207,23.763965283091977,70.11,83.0,7.0,7.25
429,Grindavik,60.693017296329884,-23.324447397716625,35.6,80.0,40.0,14.97
430,Dakar,16.137227262710397,-19.607480002776327,71.6,64.0,0.0,14.97
431,Mehriz,30.988807035865804,54.676201440124174,57.2,24.0,75.0,4.61
432,The Valley,21.37328831535568,-62.58788131128202,82.4,61.0,20.0,17.27
433,Lichinga,-12.675681106916414,35.297486158102146,69.8,88.0,75.0,5.75
434,Zhezkazgan,46.386085236442625,69.54652487681034,-2.07,87.0,96.0,8.28
435,Tarata,-18.177824593552117,-68.95386830648384,71.6,49.0,75.0,3.44
436,Shizunai,41.63028712372872,142.37856090667742,21.74,91.0,34.0,7.02
437,Galle,3.805547574538238,78.57381105299902,78.64,75.0,95.0,2.51
438,Tautira,-16.088308171776305,-146.43184356329004,75.2,73.0,20.0,2.3
439,Lasa,29.912816132185895,92.79308366750325,36.64,80.0,40.0,5.75
440,Hofn,65.87913187594623,-14.699206974165776,32.0,93.0,40.0,4.61
441,Bethel,52.334965922643676,-160.30953816371817,27.07,63.0,1.0,4.61
442,Orcopampa,-15.43155223450988,-72.7196167233008,55.35,48.0,100.0,8.19
443,Haines Junction,62.54146512612479,-138.8013028058291,-43.6,66.0,17.0,1.14
444,Kurilsk,45.097080484521115,147.6416377531703,19.11,93.0,99.0,12.8
445,Santa Teresa,12.107144198124374,121.10728802806926,76.28,88.0,40.0,8.46
446,Emerald,-24.023353185302383,147.48006200876426,73.4,88.0,90.0,10.36
447,Iqaluit,64.11631776807073,-71.21296359654013,8.29,85.0,75.0,4.61
448,Icod De Los Vinos,28.47997149874375,-16.66330671125141,63.97,76.0,35.0,1.99
449,Kenai,62.1810985910688,-153.8419779147222,12.04,79.0,90.0,13.8
450,Mayo,62.46810046993525,-136.8937318766677,37.18,65.0,75.0,6.91
451,Zhob,31.711585785323777,68.2841024071005,55.38,36.0,0.0,4.79
452,Maku,39.309101224992986,44.33227864546299,39.11,66.0,100.0,4.56
453,Deputatskiy,76.44443300059694,141.93301398745052,-23.35,88.0,29.0,2.13
454,Necochea,-46.19008387438552,-57.02949216350126,73.99,59.0,37.0,7.0
455,Yinchuan,37.72255965327652,107.22447961987956,42.31,59.0,100.0,11.43
456,Alpena,45.00988958758802,-84.10142927196274,15.15,62.0,1.0,11.5
457,Morelia,19.502245479224328,-101.07874502892439,62.6,48.0,1.0,3.38
458,Hirara,19.358266030648295,129.32481451364674,70.99,81.0,88.0,24.05
459,Paracuru,3.7252836085827425,-34.410541275630436,82.99,73.0,48.0,20.0
460,Narrabri,-30.043292709761488,147.23101278817887,65.1,68.0,0.0,6.91
461,Bengkulu,-14.910572114884644,89.0592319308575,75.87,88.0,99.0,3.67
462,Lukovetskiy,65.71475247887139,42.00150671727036,-2.2,78.0,75.0,2.24
463,Guerrero,26.813207663167816,-99.33888122346163,80.69,28.0,0.0,1.41
464,Palabuhanratu,-9.376338801596788,104.25170486124529,,,,
465,Ijaki,-2.592863578682696,175.97721350575705,,,,
466,Peterhead,57.516001280213885,-1.769613907068532,29.71,64.0,20.0,5.75
467,Manggar,-1.7477760393952053,108.55909504275132,79.12,86.0,100.0,7.52
468,Aykhal,66.22486333403316,110.09436677774761,-20.88,85.0,97.0,5.61
469,Abu Kamal,32.87588038822848,40.56260180942033,64.47,37.0,2.0,2.82
470,Storforshei,65.53279097504313,15.918048980919394,-4.18,77.0,0.0,2.3
471,Tete,-16.096705758853616,32.84104187841362,95.0,38.0,40.0,5.75
472,Bambous Virieux,-37.02940667055421,82.29057160817354,79.38,74.0,40.0,9.22
473,Itoman,26.081628257373637,126.5092470256389,63.64,88.0,75.0,16.11
474,Nguiu,-11.584222313352043,129.16565368349143,,,,
475,Hare Bay,48.966574788700285,-53.995944813792974,22.32,80.0,96.0,10.36
476,Marzuq,24.109334001150643,12.953973762978649,61.48,31.0,56.0,4.74
477,Sao Paulo De Olivenca,-2.5978779776745284,-69.46509179002419,82.71,87.0,100.0,3.85
478,Petropavlovsk-Kamchatskiy,48.20857306239748,162.4264570001265,17.6,79.0,100.0,8.95
479,San Quintin,28.43877090852797,-120.81905234001718,56.55,65.0,86.0,10.69
480,Progreso,21.61908851152296,-90.03315743558491,84.61,65.0,20.0,11.5
481,Marsabit,2.5149263443322667,38.749649015598266,75.06,35.0,58.0,10.13
482,Baykit,61.36676632832015,95.02774616696956,-11.36,85.0,99.0,2.91
483,Batabano,22.338246181605783,-82.14360082334356,82.2,61.0,20.0,8.05
484,Maldonado,-36.36431942888127,-53.89772697298474,75.13,78.0,75.0,12.66
485,Umm Durman,15.884834948280101,31.250247947145652,,,,
486,Bogorodskoye,57.9795145456666,50.6307184417212,4.21,94.0,92.0,6.69
487,Inongo,-1.773771912577942,18.513566574451772,82.6,61.0,87.0,1.5
488,Karkaralinsk,48.45539432590337,75.87677528703063,,,,
489,San Policarpo,13.93858401203228,130.12259806761892,80.26,86.0,59.0,11.05
490,Rio Grande,-42.60699363867438,-40.76191388214809,82.4,69.0,75.0,13.8
491,Kloulklubed,3.4727203346299547,135.42040361652977,78.8,89.0,75.0,5.75
492,Sinkat,20.2835234515356,35.90082352535197,,,,
493,Fortuna,37.82447717127192,-135.10717434092064,40.23,100.0,90.0,5.75
494,Sorland,72.85379780182848,8.608240933627116,28.4,59.0,40.0,2.3
495,Lockhart,29.449773814935952,-97.49838014816615,79.23,78.0,20.0,4.61
496,Morant Bay,16.738149114943,-76.49553414570724,84.63,65.0,20.0,11.5
497,Wana,32.445592708792546,69.32509133616924,54.19,38.0,0.0,3.04
498,Alugan,17.952499787847216,133.91814256531796,79.65,87.0,56.0,10.31
499,Rawson,-51.20868033796515,-56.744691096816055,87.31,24.0,1.0,26.06
500,Erenhot,45.409034968227445,111.89948791018202,30.25,90.0,73.0,16.55
501,Herat,34.346889120562324,63.00660869243586,50.0,40.0,0.0,6.91
502,Pevek,79.72296994734143,166.97962384787456,-11.97,70.0,0.0,2.15
503,Bonfim,1.2126233958754113,-59.49110246038899,92.71,33.0,7.0,10.31
504,Mouzakion,36.823544776649314,19.58047208657368,,,,
505,Ixtapa,7.792684708778864,-106.41823352814035,68.0,77.0,1.0,4.05
506,Eldikan,61.25677919395969,135.89621922000026,,,,
507,Mazyr,51.7713765283562,29.75116510280816,9.32,96.0,93.0,4.99
508,Rio Gallegos,-51.71339312687455,-68.96476075424236,66.2,59.0,0.0,11.5
509,Griffith,-32.15964466065063,145.5534406907022,17.31,67.0,90.0,4.83
510,Andenes,71.51242534816222,17.003949706725308,30.2,74.0,75.0,19.57
511,Pochutla,8.113765992406357,-97.05142465153114,85.64,51.0,20.0,5.53
512,Oranjemund,-32.064081575533216,10.486667977186585,68.29,74.0,24.0,8.48
513,Ust-Nera,62.819596775180884,141.21179719593096,8.24,85.0,53.0,6.55
514,Nandyal,15.418913464534285,78.4098546398659,70.48,60.0,0.0,5.03
515,Quatre Cocos,-17.027451207804077,73.17924827169765,79.23,74.0,40.0,9.22
516,Bolivar,37.92339916472318,-93.1275240781933,16.52,91.0,100.0,8.72
517,Grand Gaube,-16.246471586491595,63.92191422898432,78.01,79.0,22.0,5.99
518,Biltine,16.08725850935737,20.471682602335477,77.74,16.0,0.0,7.56
519,Savannakhet,16.403342313889894,105.26369659251617,64.18,72.0,8.0,7.74
520,Kayerkan,71.88876885889007,87.19527519915852,-13.9,82.0,10.0,5.68
521,Ondjiva,-16.62494578889708,15.271032022875943,86.0,48.0,20.0,5.75
522,Cotonou,5.232048389901806,2.742202562528803,89.6,70.0,20.0,13.8
523,Hemnesberget,66.15367208103979,13.669667115757136,-2.87,77.0,0.0,2.3
524,Lorengau,3.4631922853606056,143.71395213225003,77.83,92.0,100.0,22.06
525,Waitati,-48.02606061868173,175.04764887389598,56.48,57.0,78.0,8.99
526,Amasya,40.610335289467315,35.99798771200665,48.2,61.0,40.0,3.44
527,Qandala,11.584478705609499,50.144134104048305,75.11,66.0,93.0,8.63
528,Lazaro Cardenas,9.924425194726055,-106.44423974848392,81.1,57.0,2.0,3.42
529,Boralday,43.259247456013156,76.36020075340048,30.2,100.0,90.0,6.71
530,Maraba,-4.626669897630734,-48.57699394092526,91.4,79.0,75.0,2.3
531,Pampa,35.874846701850515,-100.27256600095517,18.37,93.0,90.0,7.78
532,Banswada,18.4971510015541,77.8599682439716,69.44,22.0,16.0,5.95
533,Dalhousie,48.4989038010782,-66.45114467591121,44.01,54.0,10.0,6.73
534,Kyzyl-Suu,41.70119802128099,77.34444921518161,34.45,83.0,100.0,5.44
535,Itaituba,-4.4023231462489605,-55.224597986501706,80.6,83.0,90.0,9.22
536,Shihezi,43.884664110558134,86.42365255508406,15.28,94.0,95.0,2.1
537,Aitape,-3.9030688972217007,141.51871823448096,77.43,88.0,100.0,6.53
538,Dhariwal,32.00997044283166,75.32590077650218,57.2,77.0,0.0,1.61
539,Qaqortoq,56.57966430700105,-48.7396342895141,32.0,25.0,20.0,26.46
540,Port Keats,-14.31202578474685,130.85776963456402,81.34,83.0,76.0,9.62
541,Tolaga Bay,-38.674673422218575,179.78586815164323,63.93,87.0,100.0,2.84
542,Farafangana,-23.069766676046655,50.0524429425366,76.14,86.0,100.0,4.56
543,Erdenet,48.7656555924176,104.79589820215807,14.59,97.0,100.0,2.77
544,Belmonte,-15.25362205946469,-36.677170300262844,84.2,61.0,20.0,10.36
545,Latung,4.27124509011756,121.79447912209281,83.75,70.0,64.0,3.24
546,Requena,-4.839941815466986,-74.50964923713816,64.83,28.0,20.0,13.8
547,Camacha,36.52503030561003,-16.970633975936863,66.2,77.0,40.0,10.36
548,Imeni Stepana Razina,54.91396172774651,44.322038348149704,3.4,93.0,100.0,9.17
549,Linxia,34.547713651950716,103.6569164362104,37.42,69.0,83.0,3.04
550,Walvis Bay,-26.042522103577014,2.179166637506711,70.86,68.0,0.0,6.91
551,Lompoc,24.427286619598107,-135.68610247150792,49.96,93.0,1.0,5.95
552,Narsaq,74.42533191226303,-65.05184431319202,32.0,25.0,20.0,26.46
553,Kavieng,4.655820206501403,156.35762227214332,82.62,75.0,62.0,8.41
554,Bolgatanga,10.67133603759767,-0.9739806854213953,100.42,7.0,8.0,7.0
555,Harper,-3.423862085042771,-7.1272403647940905,82.29,80.0,16.0,8.63
556,Alvaraes,-3.187126826482995,-64.65438683761128,86.0,74.0,40.0,6.91
557,Chern,53.319380334476676,36.960613516441526,6.12,95.0,96.0,8.88
558,Khandbari,28.006708187845106,87.41292446502553,55.33,60.0,95.0,0.94
559,Gidam,19.37873385660032,80.89987130808123,63.32,30.0,0.0,0.65
560,Solnechnyy,59.33448017164284,138.01659684096364,-1.73,87.0,51.0,0.89
561,Manzhouli,46.095041778225124,117.0754575969483,10.08,95.0,100.0,4.72
562,Dillon,45.494643629453265,-112.88898505739891,54.48,94.0,90.0,9.22
563,Merauke,-9.111999197685762,139.32577187772904,79.14,88.0,100.0,5.66
564,Ormara,24.899939151688244,65.68348125841294,72.91,52.0,70.0,9.84
565,Chimore,-16.1348690481898,-65.2305766236665,70.32,97.0,100.0,0.18
566,Mogadishu,1.5856829921362845,47.871652643955855,77.88,76.0,6.0,24.27
567,Tshikapa,-7.047280003106508,21.591902274225333,78.08,77.0,99.0,1.54
568,Kelowna,49.90259864111883,-119.49853666102263,12.99,57.0,20.0,11.5
569,Ulety,51.678537211592925,112.37221414503546,18.28,95.0,98.0,1.54
570,Pinyug,60.43619450129282,47.869758069525005,-9.51,89.0,80.0,2.48
571,Toliary,-25.881525788281223,40.24427732844683,,,,
572,Darhan,46.04937463126814,109.86813669494234,17.04,94.0,100.0,6.22
573,Teeli,51.095085729040676,89.50466135798007,-0.78,72.0,2.0,5.95
574,Lazarev,52.40653158791039,142.0927631482066,14.43,90.0,99.0,19.95
575,Mollendo,-17.1316431488698,-72.41223895559212,75.79,65.0,51.0,8.46
576,Usinsk,67.09349291995875,56.24911920900587,-17.34,89.0,94.0,5.53
577,Cuiluan,47.93912331017927,128.4743639806124,5.5,93.0,62.0,2.84
578,Tanete,-6.134774367742381,120.57304912783877,76.14,86.0,84.0,2.28
579,Puksoozero,62.28452723891468,41.37530632594712,-6.93,91.0,0.0,3.98
580,Carauari,-5.997566446828557,-65.94241967299642,83.98,83.0,92.0,4.79
581,Portland,-52.099574310271265,133.27388830226488,34.14,80.0,90.0,1.12
582,Abu Zabad,11.858932373013019,28.93608971031901,79.34,17.0,94.0,8.05
583,Mrirt,31.58194627375711,-6.240740196921394,,,,
584,Isabela,20.246509881359614,-67.30073191664002,78.6,84.0,40.0,2.3
585,Duluth,47.00330582654169,-92.30244671095416,-4.4,54.0,1.0,11.5
586,Kalamansig,6.546157353782348,124.04177477948849,80.06,72.0,100.0,3.44
587,Solsvik,59.63157706062543,2.1411660613931076,,,,
588,Ngukurr,-18.47540643822977,133.9679135267561,,,,
589,Alihe,49.61251693966233,122.76130033424499,7.7,92.0,53.0,1.39
590,San Carlos De Bariloche,-40.87345181870717,-69.15536586585307,80.6,32.0,0.0,13.8
591,Samana,19.400253354111626,-68.6445662539219,80.6,78.0,40.0,6.91
592,Cururupu,6.261600328819583,-41.260494657458366,83.44,74.0,99.0,6.49
593,Constitucion,12.170920727418718,-125.71050936859842,71.29,63.0,7.0,6.53
594,Liku,-13.779733760527236,-174.96329086388047,77.85,84.0,87.0,2.21
595,Agde,42.78458577770752,3.6614365714467567,53.26,62.0,75.0,9.22
596,Turukhansk,65.59954902363316,89.52858579434644,-14.55,89.0,100.0,8.5
597,Boo,59.06479876561875,18.464898601834307,21.31,86.0,75.0,6.91
598,Pimentel,-9.065102399266422,-83.6834329453041,80.44,54.0,0.0,9.22
599,Carutapera,4.450495070675615,-42.94355656412657,83.89,69.0,100.0,7.58
600,Wangqing,43.27361342518478,129.4396349496226,14.85,94.0,25.0,1.74
601,Wanning,17.499021917214094,114.7989547482747,61.3,87.0,98.0,8.19
602,Amudat,1.9276467249506908,34.97236662532683,79.63,37.0,100.0,15.1
603,Donskoye,55.68246405438842,19.726050885905295,48.97,71.0,0.0,11.18
604,Gleisdorf,47.001929424053145,15.707518196341823,34.54,99.0,99.0,2.84
605,Soyo,-7.03876758983813,8.36125782667608,81.66,77.0,100.0,6.82
606,Zhanatas,44.98946467233634,70.97462933031801,,,,
607,Carballo,46.719962814724425,-12.000331800301069,51.46,72.0,100.0,1.99
608,Tokoroa,-38.23214341687658,175.7252548492333,55.0,90.0,96.0,1.01
609,Novobirilyussy,56.91289376796561,90.53277280143266,-4.92,91.0,100.0,4.92
610,Cambaly,16.58941672422887,120.50415362241756,,,,
611,Juneau,57.676887575956016,-134.4224233043445,-4.0,71.0,20.0,10.13
612,Xuddur,4.8556466057461165,44.243574496639496,81.07,28.0,59.0,10.31
613,Baudh,20.8843437648665,84.14591099773412,65.07,28.0,24.0,4.43
614,Cacequi,-29.832898946558842,-54.49737791741032,84.92,47.0,86.0,4.38
615,Bodden Town,19.496924974038905,-80.54945888624228,80.24,73.0,40.0,9.22
616,Miri,4.667408406105011,112.99040460383168,78.4,94.0,40.0,2.3
617,Tambura,5.507311792987082,27.243449961906123,83.17,20.0,99.0,3.83
618,Yellandu,18.076403575708383,80.27286492416692,69.3,44.0,0.0,3.78
619,Fereydunshahr,32.87848447242612,50.177042920809726,34.61,68.0,92.0,3.06
620,Batsfjord,71.57361991015267,29.857007109566325,17.6,86.0,75.0,21.85
621,Myski,54.02796392170518,87.75916095004504,-2.27,90.0,100.0,5.55
622,Mestia,43.0528347582607,42.978700432667324,33.87,81.0,59.0,1.48
623,Kusa,55.68226804323521,59.457295880137366,-1.84,90.0,100.0,1.25
